{
  "acId": "TN-001",
  "acName": "Gummidipoondi",
  "state": "Tamil Nadu",
  "totalBooths": 80,
  "lastUpdated": "2025-01-18",
  "source": "Tamil Nadu CEO",
  "bounds": {
    "north": 13.55,
    "south": 13.20,
    "east": 80.20,
    "west": 79.80
  },
  "booths": [
    { "id": "TN-001-001", "boothNo": "1", "num": 1, "type": "regular", "name": "Panchayat Union Primary School", "address": "Athipattu Village", "area": "Athipattu", "location": { "lat": 13.3812, "lng": 79.9523 } },
    { "id": "TN-001-002", "boothNo": "2", "num": 2, "type": "regular", "name": "Panchayat Union Middle School", "address": "Athipattu Main Road", "area": "Athipattu", "location": { "lat": 13.3845, "lng": 79.9545 } },
    { "id": "TN-001-003", "boothNo": "3", "num": 3, "type": "regular", "name": "Government Higher Secondary School", "address": "Athipattu", "area": "Athipattu", "location": { "lat": 13.3878, "lng": 79.9512 } },
    { "id": "TN-001-004", "boothNo": "4", "num": 4, "type": "regular", "name": "Panchayat Union Primary School", "address": "Annamalaicheri", "area": "Annamalaicheri", "location": { "lat": 13.4156, "lng": 79.9234 } },
    { "id": "TN-001-005", "boothNo": "5", "num": 5, "type": "regular", "name": "Government Primary School", "address": "Arambakkam", "area": "Arambakkam", "location": { "lat": 13.4278, "lng": 79.8987 } },
    { "id": "TN-001-006", "boothNo": "6", "num": 6, "type": "regular", "name": "Panchayat Union Middle School", "address": "Arambakkam South", "area": "Arambakkam", "location": { "lat": 13.4245, "lng": 79.9012 } },
    { "id": "TN-001-007", "boothNo": "7", "num": 7, "type": "regular", "name": "Community Hall", "address": "Arani Road", "area": "Gummidipoondi", "location": { "lat": 13.3923, "lng": 79.9878 } },
    { "id": "TN-001-008", "boothNo": "8", "num": 8, "type": "regular", "name": "Panchayat Office", "address": "Elavoor", "area": "Elavoor", "location": { "lat": 13.3567, "lng": 79.9345 } },
    { "id": "TN-001-009", "boothNo": "9", "num": 9, "type": "regular", "name": "Government Primary School", "address": "Elavoor Main", "area": "Elavoor", "location": { "lat": 13.3589, "lng": 79.9367 } },
    { "id": "TN-001-010", "boothNo": "10", "num": 10, "type": "regular", "name": "Panchayat Union Primary School", "address": "Ennore Kuppam", "area": "Ennore", "location": { "lat": 13.2534, "lng": 80.1012 } },
    { "id": "TN-001-011", "boothNo": "11", "num": 11, "type": "regular", "name": "Corporation School", "address": "Ennore", "area": "Ennore", "location": { "lat": 13.2556, "lng": 80.1034 } },
    { "id": "TN-001-012", "boothNo": "12", "num": 12, "type": "regular", "name": "Government High School", "address": "Ennore Beach Road", "area": "Ennore", "location": { "lat": 13.2578, "lng": 80.1156 } },
    { "id": "TN-001-013", "boothNo": "13", "num": 13, "type": "regular", "name": "Panchayat Union Primary School", "address": "Ernavoor", "area": "Ernavoor", "location": { "lat": 13.2689, "lng": 80.0456 } },
    { "id": "TN-001-014", "boothNo": "14", "num": 14, "type": "regular", "name": "Government Middle School", "address": "Ernavoor South", "area": "Ernavoor", "location": { "lat": 13.2667, "lng": 80.0478 } },
    { "id": "TN-001-015", "boothNo": "15", "num": 15, "type": "regular", "name": "Community Hall", "address": "Gummidipoondi Town", "area": "Gummidipoondi", "location": { "lat": 13.3945, "lng": 79.9923 } },
    { "id": "TN-001-016", "boothNo": "16", "num": 16, "type": "regular", "name": "Government Higher Secondary School", "address": "Gummidipoondi", "area": "Gummidipoondi", "location": { "lat": 13.3967, "lng": 79.9945 } },
    { "id": "TN-001-017", "boothNo": "17", "num": 17, "type": "regular", "name": "Municipal Office", "address": "Gummidipoondi Main Road", "area": "Gummidipoondi", "location": { "lat": 13.3989, "lng": 79.9889 } },
    { "id": "TN-001-018", "boothNo": "18", "num": 18, "type": "regular", "name": "Panchayat Union Primary School", "address": "Jaganathapuram", "area": "Jaganathapuram", "location": { "lat": 13.4423, "lng": 79.9134 } },
    { "id": "TN-001-019", "boothNo": "19", "num": 19, "type": "regular", "name": "Government Primary School", "address": "Kadapakkam", "area": "Kadapakkam", "location": { "lat": 13.4534, "lng": 79.8856 } },
    { "id": "TN-001-020", "boothNo": "20", "num": 20, "type": "regular", "name": "Panchayat Union Middle School", "address": "Kannigaipair", "area": "Kannigaipair", "location": { "lat": 13.4645, "lng": 79.8712 } },
    { "id": "TN-001-021", "boothNo": "21", "num": 21, "type": "regular", "name": "Government High School", "address": "Kannigaipair Main", "area": "Kannigaipair", "location": { "lat": 13.4667, "lng": 79.8734 } },
    { "id": "TN-001-022", "boothNo": "22", "num": 22, "type": "regular", "name": "Panchayat Union Primary School", "address": "Kattupalli", "area": "Kattupalli", "location": { "lat": 13.3123, "lng": 80.1234 } },
    { "id": "TN-001-023", "boothNo": "23", "num": 23, "type": "regular", "name": "Fishermen Cooperative Building", "address": "Kattupalli Beach", "area": "Kattupalli", "location": { "lat": 13.3145, "lng": 80.1356 } },
    { "id": "TN-001-024", "boothNo": "24", "num": 24, "type": "regular", "name": "Government Primary School", "address": "Kondakarai", "area": "Kondakarai", "location": { "lat": 13.3456, "lng": 79.9789 } },
    { "id": "TN-001-025", "boothNo": "25", "num": 25, "type": "regular", "name": "Panchayat Union Middle School", "address": "Koovathur", "area": "Koovathur", "location": { "lat": 13.4767, "lng": 79.8623 } },
    { "id": "TN-001-026", "boothNo": "26", "num": 26, "type": "regular", "name": "Government Higher Secondary School", "address": "Koovathur Main", "area": "Koovathur", "location": { "lat": 13.4789, "lng": 79.8645 } },
    { "id": "TN-001-027", "boothNo": "27", "num": 27, "type": "regular", "name": "Community Centre", "address": "Kosavanpettai", "area": "Kosavanpettai", "location": { "lat": 13.4878, "lng": 79.8534 } },
    { "id": "TN-001-028", "boothNo": "28", "num": 28, "type": "regular", "name": "Panchayat Union Primary School", "address": "Kuruvimedu", "area": "Kuruvimedu", "location": { "lat": 13.4989, "lng": 79.8412 } },
    { "id": "TN-001-029", "boothNo": "29", "num": 29, "type": "regular", "name": "Government Primary School", "address": "Lakshmipuram", "area": "Lakshmipuram", "location": { "lat": 13.3890, "lng": 79.9234 } },
    { "id": "TN-001-030", "boothNo": "30", "num": 30, "type": "regular", "name": "Panchayat Union Middle School", "address": "Manali New Town", "area": "Manali", "location": { "lat": 13.2278, "lng": 80.0589 } },
    { "id": "TN-001-031", "boothNo": "31", "num": 31, "type": "regular", "name": "Corporation School", "address": "Manali", "area": "Manali", "location": { "lat": 13.2290, "lng": 80.0612 } },
    { "id": "TN-001-032", "boothNo": "32", "num": 32, "type": "regular", "name": "Government High School", "address": "Manali Industrial Area", "area": "Manali", "location": { "lat": 13.2312, "lng": 80.0534 } },
    { "id": "TN-001-033", "boothNo": "33", "num": 33, "type": "regular", "name": "Panchayat Union Primary School", "address": "Minjur", "area": "Minjur", "location": { "lat": 13.2789, "lng": 80.0567 } },
    { "id": "TN-001-034", "boothNo": "34", "num": 34, "type": "regular", "name": "Government Higher Secondary School", "address": "Minjur Town", "area": "Minjur", "location": { "lat": 13.2812, "lng": 80.0589 } },
    { "id": "TN-001-035", "boothNo": "35", "num": 35, "type": "regular", "name": "Municipal Middle School", "address": "Minjur Main Road", "area": "Minjur", "location": { "lat": 13.2834, "lng": 80.0534 } },
    { "id": "TN-001-036", "boothNo": "36", "num": 36, "type": "regular", "name": "Panchayat Office", "address": "Nadukuppam", "area": "Nadukuppam", "location": { "lat": 13.2945, "lng": 80.0412 } },
    { "id": "TN-001-037", "boothNo": "37", "num": 37, "type": "regular", "name": "Government Primary School", "address": "Nallur", "area": "Nallur", "location": { "lat": 13.4012, "lng": 79.8923 } },
    { "id": "TN-001-037W", "boothNo": "37(W)", "num": 37, "type": "women", "name": "Government Girls Higher Secondary School", "address": "Nallur Main Road", "area": "Nallur", "location": { "lat": 13.4034, "lng": 79.8945 } },
    { "id": "TN-001-038", "boothNo": "38", "num": 38, "type": "regular", "name": "Panchayat Union Middle School", "address": "Nayapakkam", "area": "Nayapakkam", "location": { "lat": 13.4123, "lng": 79.8812 } },
    { "id": "TN-001-039", "boothNo": "39", "num": 39, "type": "regular", "name": "Community Hall", "address": "New Ennore", "area": "Ennore", "location": { "lat": 13.2612, "lng": 80.0978 } },
    { "id": "TN-001-040", "boothNo": "40", "num": 40, "type": "regular", "name": "Government Primary School", "address": "North Ennore", "area": "Ennore", "location": { "lat": 13.2634, "lng": 80.0912 } },
    { "id": "TN-001-041", "boothNo": "41", "num": 41, "type": "regular", "name": "Panchayat Union Primary School", "address": "Palavakkam", "area": "Palavakkam", "location": { "lat": 13.3234, "lng": 80.0178 } },
    { "id": "TN-001-042", "boothNo": "42", "num": 42, "type": "regular", "name": "Government Middle School", "address": "Pattabiram", "area": "Pattabiram", "location": { "lat": 13.3545, "lng": 79.8512 } },
    { "id": "TN-001-043", "boothNo": "43", "num": 43, "type": "regular", "name": "Panchayat Union Primary School", "address": "Periyakuppam", "area": "Periyakuppam", "location": { "lat": 13.3456, "lng": 80.0856 } },
    { "id": "TN-001-044", "boothNo": "44", "num": 44, "type": "regular", "name": "Fishermen School", "address": "Periyakuppam Beach", "area": "Periyakuppam", "location": { "lat": 13.3478, "lng": 80.0978 } },
    { "id": "TN-001-045", "boothNo": "45", "num": 45, "type": "regular", "name": "Government Primary School", "address": "Perumbedu", "area": "Perumbedu", "location": { "lat": 13.4234, "lng": 79.9123 } },
    { "id": "TN-001-046", "boothNo": "46", "num": 46, "type": "regular", "name": "Panchayat Union Middle School", "address": "Ponneri Road", "area": "Gummidipoondi", "location": { "lat": 13.3856, "lng": 79.9956 } },
    { "id": "TN-001-047", "boothNo": "47", "num": 47, "type": "regular", "name": "Government High School", "address": "Pulicat", "area": "Pulicat", "location": { "lat": 13.5178, "lng": 80.0534 } },
    { "id": "TN-001-048", "boothNo": "48", "num": 48, "type": "regular", "name": "Panchayat Union Primary School", "address": "Pulicat Lake Road", "area": "Pulicat", "location": { "lat": 13.5156, "lng": 80.0478 } },
    { "id": "TN-001-049", "boothNo": "49", "num": 49, "type": "regular", "name": "Community Centre", "address": "Puzhal", "area": "Puzhal", "location": { "lat": 13.2456, "lng": 79.9512 } },
    { "id": "TN-001-050", "boothNo": "50", "num": 50, "type": "regular", "name": "Government Primary School", "address": "Rajiv Gandhi Nagar", "area": "Gummidipoondi", "location": { "lat": 13.3912, "lng": 79.9834 } },
    { "id": "TN-001-050W", "boothNo": "50(W)", "num": 50, "type": "women", "name": "Government Girls School", "address": "Rajiv Gandhi Nagar", "area": "Gummidipoondi", "location": { "lat": 13.3934, "lng": 79.9856 } },
    { "id": "TN-001-051", "boothNo": "51", "num": 51, "type": "regular", "name": "Panchayat Union Middle School", "address": "Red Hills", "area": "Red Hills", "location": { "lat": 13.2134, "lng": 79.9789 } },
    { "id": "TN-001-052", "boothNo": "52", "num": 52, "type": "regular", "name": "Government Higher Secondary School", "address": "Red Hills Lake", "area": "Red Hills", "location": { "lat": 13.2156, "lng": 79.9812 } },
    { "id": "TN-001-053", "boothNo": "53", "num": 53, "type": "regular", "name": "Panchayat Union Primary School", "address": "S.P. Koil", "area": "S.P. Koil", "location": { "lat": 13.3623, "lng": 79.8845 } },
    { "id": "TN-001-054", "boothNo": "54", "num": 54, "type": "regular", "name": "Government Primary School", "address": "Sadayankuppam", "area": "Sadayankuppam", "location": { "lat": 13.2867, "lng": 80.0723 } },
    { "id": "TN-001-055", "boothNo": "55", "num": 55, "type": "regular", "name": "Community Hall", "address": "Sathangadu", "area": "Sathangadu", "location": { "lat": 13.2367, "lng": 80.0234 } },
    { "id": "TN-001-056", "boothNo": "56", "num": 56, "type": "regular", "name": "Panchayat Union Middle School", "address": "Sembarambakkam", "area": "Sembarambakkam", "location": { "lat": 13.2478, "lng": 79.9578 } },
    { "id": "TN-001-057", "boothNo": "57", "num": 57, "type": "regular", "name": "Government High School", "address": "Sholavaram", "area": "Sholavaram", "location": { "lat": 13.2589, "lng": 79.8945 } },
    { "id": "TN-001-058", "boothNo": "58", "num": 58, "type": "regular", "name": "Panchayat Union Primary School", "address": "Sipcot", "area": "Gummidipoondi", "location": { "lat": 13.4067, "lng": 79.9989 } },
    { "id": "TN-001-059", "boothNo": "59", "num": 59, "type": "regular", "name": "Industrial Training Institute", "address": "Sipcot Industrial Area", "area": "Gummidipoondi", "location": { "lat": 13.4089, "lng": 80.0012 } },
    { "id": "TN-001-060", "boothNo": "60", "num": 60, "type": "regular", "name": "Government Primary School", "address": "Sothupattu", "area": "Sothupattu", "location": { "lat": 13.4290, "lng": 79.9456 } },
    { "id": "TN-001-061", "boothNo": "61", "num": 61, "type": "regular", "name": "Panchayat Union Primary School", "address": "Thandarai", "area": "Thandarai", "location": { "lat": 13.4390, "lng": 79.9578 } },
    { "id": "TN-001-062", "boothNo": "62", "num": 62, "type": "regular", "name": "Government Middle School", "address": "Thiruvottiyur", "area": "Thiruvottiyur", "location": { "lat": 13.2212, "lng": 80.0878 } },
    { "id": "TN-001-063", "boothNo": "63", "num": 63, "type": "regular", "name": "Corporation Higher Secondary School", "address": "Thiruvottiyur Main", "area": "Thiruvottiyur", "location": { "lat": 13.2234, "lng": 80.0912 } },
    { "id": "TN-001-064", "boothNo": "64", "num": 64, "type": "regular", "name": "Panchayat Union Primary School", "address": "Tirupalaivanam", "area": "Tirupalaivanam", "location": { "lat": 13.3512, "lng": 80.0534 } },
    { "id": "TN-001-065", "boothNo": "65", "num": 65, "type": "regular", "name": "Government Primary School", "address": "Vallur", "area": "Vallur", "location": { "lat": 13.2923, "lng": 80.0145 } },
    { "id": "TN-001-066", "boothNo": "66", "num": 66, "type": "regular", "name": "NTPC School", "address": "Vallur Thermal Plant", "area": "Vallur", "location": { "lat": 13.2945, "lng": 80.0178 } },
    { "id": "TN-001-067", "boothNo": "67", "num": 67, "type": "regular", "name": "Panchayat Union Middle School", "address": "Vengal", "area": "Vengal", "location": { "lat": 13.3734, "lng": 79.8723 } },
    { "id": "TN-001-068", "boothNo": "68", "num": 68, "type": "regular", "name": "Government High School", "address": "Vengal Main", "area": "Vengal", "location": { "lat": 13.3756, "lng": 79.8745 } },
    { "id": "TN-001-069", "boothNo": "69", "num": 69, "type": "regular", "name": "Community Centre", "address": "Wimco Nagar", "area": "Wimco Nagar", "location": { "lat": 13.2123, "lng": 80.1012 } },
    { "id": "TN-001-070", "boothNo": "70", "num": 70, "type": "regular", "name": "Corporation School", "address": "Wimco Nagar Phase 2", "area": "Wimco Nagar", "location": { "lat": 13.2145, "lng": 80.1034 } },
    { "id": "TN-001-070W", "boothNo": "70(W)", "num": 70, "type": "women", "name": "Corporation Girls School", "address": "Wimco Nagar", "area": "Wimco Nagar", "location": { "lat": 13.2167, "lng": 80.1056 } },
    { "id": "TN-001-071", "boothNo": "71", "num": 71, "type": "regular", "name": "Panchayat Union Primary School", "address": "MGR Nagar", "area": "Gummidipoondi", "location": { "lat": 13.3878, "lng": 79.9812 } },
    { "id": "TN-001-072", "boothNo": "72", "num": 72, "type": "regular", "name": "Government Primary School", "address": "Kamaraj Nagar", "area": "Gummidipoondi", "location": { "lat": 13.3901, "lng": 79.9789 } },
    { "id": "TN-001-073", "boothNo": "73", "num": 73, "type": "regular", "name": "Panchayat Union Middle School", "address": "Nehru Street", "area": "Gummidipoondi", "location": { "lat": 13.3934, "lng": 79.9967 } },
    { "id": "TN-001-074", "boothNo": "74", "num": 74, "type": "regular", "name": "Government High School", "address": "Gandhi Road", "area": "Gummidipoondi", "location": { "lat": 13.3956, "lng": 79.9889 } },
    { "id": "TN-001-075", "boothNo": "75", "num": 75, "type": "regular", "name": "Panchayat Union Primary School", "address": "Anna Nagar", "area": "Gummidipoondi", "location": { "lat": 13.3978, "lng": 79.9912 } },
    { "id": "TN-001-076", "boothNo": "76", "num": 76, "type": "regular", "name": "Community Hall", "address": "Ambedkar Street", "area": "Gummidipoondi", "location": { "lat": 13.4001, "lng": 79.9867 } },
    { "id": "TN-001-077", "boothNo": "77", "num": 77, "type": "regular", "name": "Government Primary School", "address": "Bharathiyar Street", "area": "Gummidipoondi", "location": { "lat": 13.3867, "lng": 79.9934 } },
    { "id": "TN-001-078", "boothNo": "78", "num": 78, "type": "regular", "name": "Panchayat Union Middle School", "address": "Patel Road", "area": "Gummidipoondi", "location": { "lat": 13.3845, "lng": 79.9878 } },
    { "id": "TN-001-079", "boothNo": "79", "num": 79, "type": "regular", "name": "Government Higher Secondary School", "address": "Industrial Estate", "area": "Gummidipoondi", "location": { "lat": 13.4112, "lng": 80.0034 } },
    { "id": "TN-001-080", "boothNo": "80", "num": 80, "type": "regular", "name": "Panchayat Union Primary School", "address": "New Colony", "area": "Gummidipoondi", "location": { "lat": 13.3823, "lng": 79.9823 } }
  ]
}
